{
"type": "FeatureCollection",
"name": "sandDams",
"crs": { "type": "name", "properties": { "name": "urn:ogc:def:crs:OGC:1.3:CRS84" } },
"features": [
{ "type": "Feature", "properties": { "No.": 1, "Name of Sa": "Tshakadzi", "Co-ordinat": "-20.684548; 28.855086", "District": "Gwanda", "Ward": 6, "Year": 2012, "Catchment": "Shashe", "Baseline D": "Yes", "Design Dra": "Available", "Comments": "Satisfactory", "lat": -20.684548, "long": 28.855086, "imgUrl": "./resources/images/dams/Tshakadzi.jpg", "Names": "Tshakadzi" }, "geometry": { "type": "Point", "coordinates": [ 28.855086, -20.684548 ] } },
{ "type": "Feature", "properties": { "No.": 2, "Name of Sa": "Dwayi", "Co-ordinat": "-20.698144; 28.715392", "District": "Gwanda", "Ward": 7, "Year": 2018, "Catchment": "Shashe", "Baseline D": "Yes", "Design Dra": null, "Comments": "Good", "lat": -20.698144, "long": 28.715392, "imgUrl": "./resources/images/dams/Dwayi.jpg", "Names": "Dwayi" }, "geometry": { "type": "Point", "coordinates": [ 28.715392, -20.698144 ] } },
{ "type": "Feature", "properties": { "No.": 3, "Name of Sa": "Dzenge Dwayi", "Co-ordinat": "-20.701894; 28.709570", "District": "Gwanda", "Ward": 7, "Year": 2015, "Catchment": "Shashe", "Baseline D": "Partly", "Design Dra": null, "Comments": "Good", "lat": -20.701894, "long": 28.70957, "imgUrl": "./resources/images/dams/Dzenge Dwayi.jpg", "Names": "Dzenge Dwayi" }, "geometry": { "type": "Point", "coordinates": [ 28.70957, -20.701894 ] } },
{ "type": "Feature", "properties": { "No.": 4, "Name of Sa": "Emdubini", "Co-ordinat": "-20.700530; 28.749136", "District": "Gwanda", "Ward": 7, "Year": 2015, "Catchment": "Shashe", "Baseline D": "Partly", "Design Dra": null, "Comments": "Good", "lat": -20.70053, "long": 28.749136, "imgUrl": "./resources/images/dams/Emdubini.jpg", "Names": "Emdubini" }, "geometry": { "type": "Point", "coordinates": [ 28.749136, -20.70053 ] } },
{ "type": "Feature", "properties": { "No.": 5, "Name of Sa": "Umzingwane", "Co-ordinat": "-20.708219; 28.756200", "District": "Gwanda", "Ward": 7, "Year": 2015, "Catchment": "Shashe", "Baseline D": "Yes", "Design Dra": null, "Comments": "Good", "lat": -20.708219, "long": 28.7562, "imgUrl": "./resources/images/dams/Umzingwane.jpg", "Names": "Umzingwane" }, "geometry": { "type": "Point", "coordinates": [ 28.7562, -20.708219 ] } },
{ "type": "Feature", "properties": { "No.": 6, "Name of Sa": "Edibheni Elidala", "Co-ordinat": "-20.734971; 28.741324", "District": "Gwanda", "Ward": 7, "Year": 2015, "Catchment": "Shashe", "Baseline D": "No", "Design Dra": null, "Comments": "Good", "lat": -20.734971, "long": 28.741324, "imgUrl": "./resources/images/dams/Edibheni Elidala.jpg", "Names": "Edibheni Elidala" }, "geometry": { "type": "Point", "coordinates": [ 28.741324, -20.734971 ] } },
{ "type": "Feature", "properties": { "No.": 7, "Name of Sa": "Makhwatshana", "Co-ordinat": "-20.732098; 28.840961", "District": "Gwanda", "Ward": 6, "Year": 2003, "Catchment": "Shashe", "Baseline D": "Yes", "Design Dra": "Available", "Comments": "Good", "lat": -20.732098, "long": 28.840961, "imgUrl": "./resources/images/dams/Makhwatshana.jpg", "Names": "Makhwatshana" }, "geometry": { "type": "Point", "coordinates": [ 28.840961, -20.732098 ] } },
{ "type": "Feature", "properties": { "No.": 8, "Name of Sa": "Somhlanga", "Co-ordinat": "-20.778934; 28.893922", "District": "Gwanda", "Ward": 6, "Year": 2010, "Catchment": "Shashe", "Baseline D": "Yes", "Design Dra": null, "Comments": "Good", "lat": -20.778934, "long": 28.893922, "imgUrl": "./resources/images/dams/Somhlanga.jpg", "Names": "Somhlanga" }, "geometry": { "type": "Point", "coordinates": [ 28.893922, -20.778934 ] } },
{ "type": "Feature", "properties": { "No.": 9, "Name of Sa": "Asinatheni 1", "Co-ordinat": "-20.791202; 28.829583", "District": "Gwanda", "Ward": 8, "Year": 2014, "Catchment": "Shashe", "Baseline D": "Yes", "Design Dra": "Available", "Comments": "Good", "lat": -20.791202, "long": 28.829583, "imgUrl": "./resources/images/dams/Asinatheni 1.jpg", "Names": "Asinatheni 1" }, "geometry": { "type": "Point", "coordinates": [ 28.829583, -20.791202 ] } },
{ "type": "Feature", "properties": { "No.": 10, "Name of Sa": "Asinatheni 2", "Co-ordinat": "-20.786590; 28.830380", "District": "Gwanda", "Ward": 8, "Year": 2014, "Catchment": "Shashe", "Baseline D": "Yes", "Design Dra": "Available", "Comments": "Good", "lat": -20.78659, "long": 28.83038, "imgUrl": "./resources/images/dams/Asinatheni 2.jpg", "Names": "Asinatheni 2" }, "geometry": { "type": "Point", "coordinates": [ 28.83038, -20.78659 ] } },
{ "type": "Feature", "properties": { "No.": 11, "Name of Sa": "Tadla", "Co-ordinat": "-20.722174; 28.688646", "District": "Gwanda", "Ward": 7, "Year": 2014, "Catchment": "Shashe", "Baseline D": "Yes", "Design Dra": "Available", "Comments": "Good", "lat": -20.722174, "long": 28.688646, "imgUrl": "./resources/images/dams/Tadla.jpg", "Names": "Tadla" }, "geometry": { "type": "Point", "coordinates": [ 28.688646, -20.722174 ] } },
{ "type": "Feature", "properties": { "No.": 12, "Name of Sa": "Elitsheni 1", "Co-ordinat": "-20.786626; 28.761840", "District": "Gwanda", "Ward": 7, "Year": 2014, "Catchment": "Shashe", "Baseline D": "Yes", "Design Dra": "Available", "Comments": "Good", "lat": -20.786626, "long": 28.76184, "imgUrl": "./resources/images/dams/Elitsheni 1.jpg", "Names": "Elitsheni 1" }, "geometry": { "type": "Point", "coordinates": [ 28.76184, -20.786626 ] } },
{ "type": "Feature", "properties": { "No.": 13, "Name of Sa": "Elitsheni 2", "Co-ordinat": "-20.825200; 28.773990", "District": "Gwanda", "Ward": 7, "Year": 2015, "Catchment": "Shashe", "Baseline D": "No", "Design Dra": "Available", "Comments": "Good", "lat": -20.8252, "long": 28.77399, "imgUrl": "./resources/images/dams/Elitsheni 2.jpg", "Names": "Elitsheni 2" }, "geometry": { "type": "Point", "coordinates": [ 28.77399, -20.8252 ] } },
{ "type": "Feature", "properties": { "No.": 14, "Name of Sa": "Simunye", "Co-ordinat": "-20.811841; 28.815129", "District": "Gwanda", "Ward": 8, "Year": 2010, "Catchment": "Shashe", "Baseline D": "Yes", "Design Dra": null, "Comments": "Satisfactory", "lat": -20.811841, "long": 28.815129, "imgUrl": "./resources/images/dams/Simunye.jpg", "Names": "Simunye" }, "geometry": { "type": "Point", "coordinates": [ 28.815129, -20.811841 ] } },
{ "type": "Feature", "properties": { "No.": 15, "Name of Sa": "Mbane", "Co-ordinat": "-20.853520; 28.760198", "District": "Gwanda", "Ward": 8, "Year": 2014, "Catchment": "Shashe", "Baseline D": "Yes", "Design Dra": "Available", "Comments": "Satisfactory", "lat": -20.85352, "long": 28.760198, "imgUrl": "./resources/images/dams/Mbane.jpg", "Names": "Mbane" }, "geometry": { "type": "Point", "coordinates": [ 28.760198, -20.85352 ] } },
{ "type": "Feature", "properties": { "No.": 16, "Name of Sa": "Mayisa", "Co-ordinat": "-21.163240; 29.027807", "District": "Gwanda", "Ward": 13, "Year": 2021, "Catchment": "Shashe", "Baseline D": "Yes", "Design Dra": "Available", "Comments": "New dam", "lat": -21.16324, "long": 29.027807, "imgUrl": "./resources/images/dams/Mayisa.jpg", "Names": "Mayisa" }, "geometry": { "type": "Point", "coordinates": [ 29.027807, -21.16324 ] } },
{ "type": "Feature", "properties": { "No.": 17, "Name of Sa": "Nkumbu", "Co-ordinat": "-21.161036; 29.025061", "District": "Gwanda", "Ward": 13, "Year": 2021, "Catchment": "Shashe", "Baseline D": "Yes", "Design Dra": "Available", "Comments": "New dam", "lat": -21.161036, "long": 29.025061, "imgUrl": "./resources/images/dams/Nkumbu.jpg", "Names": "Nkumbu" }, "geometry": { "type": "Point", "coordinates": [ 29.025061, -21.161036 ] } },
{ "type": "Feature", "properties": { "No.": 18, "Name of Sa": "Sabhakatsha", "Co-ordinat": "-21.162070; 29.013920", "District": "Gwanda", "Ward": 13, "Year": 2021, "Catchment": "Shashe", "Baseline D": "Yes", "Design Dra": "Available", "Comments": "New dam", "lat": -21.16207, "long": 29.01392, "imgUrl": "./resources/images/dams/Sabhakatsha.jpg", "Names": "Sabhakatsha" }, "geometry": { "type": "Point", "coordinates": [ 29.01392, -21.16207 ] } },
{ "type": "Feature", "properties": { "No.": 19, "Name of Sa": "Makhanka (weir)", "Co-ordinat": "-20.688486; 29.108327", "District": "Gwanda", "Ward": 4, "Year": 2018, "Catchment": "Upper Mzingwane", "Baseline D": "No", "Design Dra": null, "Comments": "Satisfactory", "lat": -20.688486, "long": 29.108327, "imgUrl": "./resources/images/dams/Makhanka (weir).jpg", "Names": "Makhanka (weir)" }, "geometry": { "type": "Point", "coordinates": [ 29.108327, -20.688486 ] } },
{ "type": "Feature", "properties": { "No.": 20, "Name of Sa": "Nathi", "Co-ordinat": "-21.254408; 28.981821", "District": "Gwanda", "Ward": 13, "Year": 2020, "Catchment": "Shashe", "Baseline D": "Yes", "Design Dra": "Available", "Comments": "Good", "lat": -21.254408, "long": 28.981821, "imgUrl": "./resources/images/dams/Nathi.jpg", "Names": "Nathi" }, "geometry": { "type": "Point", "coordinates": [ 28.981821, -21.254408 ] } },
{ "type": "Feature", "properties": { "No.": 21, "Name of Sa": "Pangamano", "Co-ordinat": "-21.302228; 28.982980", "District": "Gwanda", "Ward": 13, "Year": 2014, "Catchment": "Shashe", "Baseline D": "Yes", "Design Dra": "Available", "Comments": "Good", "lat": -21.302228, "long": 28.98298, "imgUrl": "./resources/images/dams/Pangamano.jpg", "Names": "Pangamano" }, "geometry": { "type": "Point", "coordinates": [ 28.98298, -21.302228 ] } },
{ "type": "Feature", "properties": { "No.": 22, "Name of Sa": "Betsa (sub-surface)", "Co-ordinat": "-21.207428; 28.918777", "District": "Gwanda", "Ward": 13, "Year": 2015, "Catchment": "Shashe", "Baseline D": "Yes", "Design Dra": "Available", "Comments": "Good", "lat": -21.207428, "long": 28.918777, "imgUrl": "./resources/images/dams/Betsa (sub-surface).jpg", "Names": "Betsa (sub-surface)" }, "geometry": { "type": "Point", "coordinates": [ 28.918777, -21.207428 ] } },
{ "type": "Feature", "properties": { "No.": 23, "Name of Sa": "Mkobela", "Co-ordinat": "-21.217158; 28.931594", "District": "Gwanda", "Ward": 13, "Year": 2014, "Catchment": "Shashe", "Baseline D": "Yes", "Design Dra": "Available", "Comments": "Good", "lat": -21.217158, "long": 28.931594, "imgUrl": "./resources/images/dams/Mkobela.jpg", "Names": "Mkobela" }, "geometry": { "type": "Point", "coordinates": [ 28.931594, -21.217158 ] } },
{ "type": "Feature", "properties": { "No.": 24, "Name of Sa": "Dotsi", "Co-ordinat": "-21.236204; 29.032014", "District": "Gwanda", "Ward": 13, "Year": 2013, "Catchment": "Shashe", "Baseline D": "Partly", "Design Dra": null, "Comments": "Good", "lat": -21.236204, "long": 29.032014, "imgUrl": "./resources/images/dams/Dotsi.jpg", "Names": "Dotsi" }, "geometry": { "type": "Point", "coordinates": [ 29.032014, -21.236204 ] } },
{ "type": "Feature", "properties": { "No.": 25, "Name of Sa": "Beula", "Co-ordinat": "-21.489459; 28.360690", "District": "Matobo", "Ward": 5, "Year": 2018, "Catchment": "Shashe", "Baseline D": "No", "Design Dra": null, "Comments": "Satisfactory", "lat": -21.489459, "long": 28.36069, "imgUrl": "./resources/images/dams/Beula.jpg", "Names": "Beula" }, "geometry": { "type": "Point", "coordinates": [ 28.36069, -21.489459 ] } },
{ "type": "Feature", "properties": { "No.": 26, "Name of Sa": "Nyoka", "Co-ordinat": "-21.388136; 28.475480", "District": "Matobo", "Ward": 6, "Year": 2017, "Catchment": "Shashe", "Baseline D": "Yes", "Design Dra": null, "Comments": "Good", "lat": -21.388136, "long": 28.47548, "imgUrl": "./resources/images/dams/Nyoka.jpg", "Names": "Nyoka" }, "geometry": { "type": "Point", "coordinates": [ 28.47548, -21.388136 ] } },
{ "type": "Feature", "properties": { "No.": 27, "Name of Sa": "Nyoka road crossing", "Co-ordinat": "-21.387250; 28.471140", "District": "Matobo", "Ward": 6, "Year": 2021, "Catchment": "Shashe", "Baseline D": "Yes", "Design Dra": "Available", "Comments": "New dam", "lat": -21.38725, "long": 28.47114, "imgUrl": "./resources/images/dams/Nyoka road crossing.jpg", "Names": "Nyoka road crossing" }, "geometry": { "type": "Point", "coordinates": [ 28.47114, -21.38725 ] } },
{ "type": "Feature", "properties": { "No.": 28, "Name of Sa": "Mafuku", "Co-ordinat": "-21.341641; 28.447155", "District": "Matobo", "Ward": 6, "Year": 2018, "Catchment": "Shashe", "Baseline D": "No", "Design Dra": null, "Comments": "Not matured well", "lat": -21.341641, "long": 28.447155, "imgUrl": "./resources/images/dams/Mafuku.jpg", "Names": "Mafuku" }, "geometry": { "type": "Point", "coordinates": [ 28.447155, -21.341641 ] } },
{ "type": "Feature", "properties": { "No.": 29, "Name of Sa": "Lalatau", "Co-ordinat": "-21.332890; 28.447320", "District": "Matobo", "Ward": 7, "Year": 2021, "Catchment": "Shashe", "Baseline D": "Yes", "Design Dra": "Available", "Comments": "New dam", "lat": -21.33289, "long": 28.44732, "imgUrl": "./resources/images/dams/Lalatau.jpg", "Names": "Lalatau" }, "geometry": { "type": "Point", "coordinates": [ 28.44732, -21.33289 ] } },
{ "type": "Feature", "properties": { "No.": 30, "Name of Sa": "Thuthukani", "Co-ordinat": "-21.357532; 28.306559", "District": "Matobo", "Ward": 6, "Year": 2017, "Catchment": "Shashe", "Baseline D": "No", "Design Dra": null, "Comments": "Satisfactory", "lat": -21.357532, "long": 28.306559, "imgUrl": "./resources/images/dams/Thuthukani.jpg", "Names": "Thuthukani" }, "geometry": { "type": "Point", "coordinates": [ 28.306559, -21.357532 ] } },
{ "type": "Feature", "properties": { "No.": 31, "Name of Sa": "Mbilaka", "Co-ordinat": "-21.255484; 28.435132", "District": "Matobo", "Ward": 7, "Year": 2017, "Catchment": "Shashe", "Baseline D": "No", "Design Dra": null, "Comments": "Satisfactory", "lat": -21.255484, "long": 28.435132, "imgUrl": "./resources/images/dams/Mbilaka.jpg", "Names": "Mbilaka" }, "geometry": { "type": "Point", "coordinates": [ 28.435132, -21.255484 ] } },
{ "type": "Feature", "properties": { "No.": 32, "Name of Sa": "Nxele", "Co-ordinat": "-21.134909; 28.319608", "District": "Matobo", "Ward": 7, "Year": 2017, "Catchment": "Shashe", "Baseline D": "No", "Design Dra": null, "Comments": "Satisfactory", "lat": -21.134909, "long": 28.319608, "imgUrl": "./resources/images/dams/Nxele.jpg", "Names": "Nxele" }, "geometry": { "type": "Point", "coordinates": [ 28.319608, -21.134909 ] } },
{ "type": "Feature", "properties": { "No.": 33, "Name of Sa": "Tshaheyi", "Co-ordinat": "-21.144528; 28.911163", "District": "Gwanda", "Ward": 13, "Year": 2013, "Catchment": "Shashe", "Baseline D": "Yes", "Design Dra": "Available", "Comments": "Good", "lat": -21.144528, "long": 28.911163, "imgUrl": "./resources/images/dams/Tshaheyi.jpg", "Names": "Tshaheyi" }, "geometry": { "type": "Point", "coordinates": [ 28.911163, -21.144528 ] } },
{ "type": "Feature", "properties": { "No.": 34, "Name of Sa": "Catenary", "Co-ordinat": "-20.686777; 29.150718", "District": "Gwanda", "Ward": 3, "Year": 2017, "Catchment": "Upper Mzingwane", "Baseline D": "No", "Design Dra": "Available", "Comments": "Good", "lat": -20.686777, "long": 29.150718, "imgUrl": "./resources/images/dams/Catenary.jpg", "Names": "Catenary" }, "geometry": { "type": "Point", "coordinates": [ 29.150718, -20.686777 ] } },
{ "type": "Feature", "properties": { "No.": 35, "Name of Sa": "Eguswini", "Co-ordinat": "-20.700120; 29.170502", "District": "Gwanda", "Ward": 3, "Year": 2017, "Catchment": "Upper Mzingwane", "Baseline D": "No", "Design Dra": null, "Comments": "Good", "lat": -20.70012, "long": 29.170502, "imgUrl": "./resources/images/dams/Eguswini.jpg", "Names": "Eguswini" }, "geometry": { "type": "Point", "coordinates": [ 29.170502, -20.70012 ] } },
{ "type": "Feature", "properties": { "No.": 36, "Name of Sa": "Bhejela", "Co-ordinat": "-20.712257; 29.152508", "District": "Gwanda", "Ward": 3, "Year": 2017, "Catchment": "Upper Mzingwane", "Baseline D": "No", "Design Dra": null, "Comments": "Good", "lat": -20.712257, "long": 29.152508, "imgUrl": "./resources/images/dams/Bhejela.jpg", "Names": "Bhejela" }, "geometry": { "type": "Point", "coordinates": [ 29.152508, -20.712257 ] } },
{ "type": "Feature", "properties": { "No.": 37, "Name of Sa": "Mkhayawokhozi", "Co-ordinat": "-20.757361; 29.098986", "District": "Gwanda", "Ward": 4, "Year": 1999, "Catchment": "Upper Mzingwane", "Baseline D": "No", "Design Dra": null, "Comments": "Not matured well", "lat": -20.757361, "long": 29.098986, "imgUrl": "./resources/images/dams/Mkhayawokhozi.jpg", "Names": "Mkhayawokhozi" }, "geometry": { "type": "Point", "coordinates": [ 29.098986, -20.757361 ] } },
{ "type": "Feature", "properties": { "No.": 38, "Name of Sa": "Mphafeni", "Co-ordinat": "-20.779383; 29.224667", "District": "Gwanda", "Ward": 3, "Year": 2004, "Catchment": "Upper Mzingwane", "Baseline D": "No", "Design Dra": null, "Comments": "Good", "lat": -20.779383, "long": 29.224667, "imgUrl": "./resources/images/dams/Mphafeni.jpg", "Names": "Mphafeni" }, "geometry": { "type": "Point", "coordinates": [ 29.224667, -20.779383 ] } },
{ "type": "Feature", "properties": { "No.": 39, "Name of Sa": "Sanqodi", "Co-ordinat": "-20.832852; 29.140651", "District": "Gwanda", "Ward": 1, "Year": 2014, "Catchment": "Upper Mzingwane", "Baseline D": "Partly", "Design Dra": "Available", "Comments": "Good", "lat": -20.832852, "long": 29.140651, "imgUrl": "./resources/images/dams/Sanqodi.jpg", "Names": "Sanqodi" }, "geometry": { "type": "Point", "coordinates": [ 29.140651, -20.832852 ] } },
{ "type": "Feature", "properties": { "No.": 40, "Name of Sa": "Nhlangano", "Co-ordinat": "-20.881529; 29.149736", "District": "Gwanda", "Ward": 1, "Year": 2009, "Catchment": "Upper Mzingwane", "Baseline D": "Yes", "Design Dra": null, "Comments": "Good", "lat": -20.881529, "long": 29.149736, "imgUrl": "./resources/images/dams/Nhlangano.jpg", "Names": "Nhlangano" }, "geometry": { "type": "Point", "coordinates": [ 29.149736, -20.881529 ] } },
{ "type": "Feature", "properties": { "No.": 41, "Name of Sa": "Jabulani", "Co-ordinat": "-20.858809; 29.064056", "District": "Gwanda", "Ward": 1, "Year": 2009, "Catchment": "Upper Mzingwane", "Baseline D": "No", "Design Dra": null, "Comments": "Not matured well", "lat": -20.858809, "long": 29.064056, "imgUrl": "./resources/images/dams/Jabulani.jpg", "Names": "Jabulani" }, "geometry": { "type": "Point", "coordinates": [ 29.064056, -20.858809 ] } },
{ "type": "Feature", "properties": { "No.": 42, "Name of Sa": "Ntswairo", "Co-ordinat": "-21.181303; 29.084795", "District": "Gwanda", "Ward": 13, "Year": 2013, "Catchment": "Lower Mzingwane", "Baseline D": "Yes", "Design Dra": "Available", "Comments": "Good", "lat": -21.181303, "long": 29.084795, "imgUrl": "./resources/images/dams/Ntswairo.jpg", "Names": "Ntswairo" }, "geometry": { "type": "Point", "coordinates": [ 29.084795, -21.181303 ] } },
{ "type": "Feature", "properties": { "No.": null, "Name of Sa": "Mawane2-Zhokwe", "Co-ordinat": null, "District": "Gwanda", "Ward": 13, "Year": 2022, "Catchment": null, "Baseline D": null, "Design Dra": null, "Comments": null, "lat": null, "long": null, "imgUrl": "./resources/images/dams/Mawane2-Zhokwe.jpg", "Names": "Mawane2-Zhokwe" }, "geometry": { "type": "Point", "coordinates": [ 28.972719182352385, -21.211304003941599 ] } }
]
}
